{"features":[{"id":"Vienna","properties":{"geo_accuracy":"city","town":"Vienna","geo_longitude":16.3730908,"geo_latitude":48.2084671,"country":"Austria"},"type":"Feature","geometry":{"type":"Point","coordinates":[16.3730908,48.2084671]}},{"id":"Palo Alto, CA","properties":{"geo_accuracy":"city","town":"Palo Alto, CA","geo_longitude":-122.1634472,"geo_latitude":37.442156,"country":"USA"},"type":"Feature","geometry":{"type":"Point","coordinates":[-122.1634472,37.442156]}},{"id":"Oberpfaffenhofen","properties":{"geo_accuracy":"village","town":"Oberpfaffenhofen","geo_longitude":11.2649062,"geo_latitude":48.0732582,"country":"Germany"},"type":"Feature","geometry":{"type":"Point","coordinates":[11.2649062,48.0732582]}},{"id":"Lund","properties":{"geo_accuracy":"administrative","town":"Lund","geo_longitude":13.1929449,"geo_latitude":55.7029296,"country":"Sweden"},"type":"Feature","geometry":{"type":"Point","coordinates":[13.1929449,55.7029296]}},{"id":"Paris","properties":{"geo_accuracy":"city","town":"Paris","geo_longitude":2.3521334,"geo_latitude":48.8565056,"country":"France"},"type":"Feature","geometry":{"type":"Point","coordinates":[2.3521334,48.8565056]}},{"id":"Stockholm","properties":{"geo_accuracy":"administrative","town":"Stockholm","geo_longitude":4.7014992,"geo_latitude":50.8790369,"country":"Sweden"},"type":"Feature","geometry":{"type":"Point","coordinates":[4.7014992,50.8790369]}},{"id":"Beijing","properties":{"geo_accuracy":"city","town":"Beijing","geo_longitude":18.0613099,"geo_latitude":59.3307611,"country":"China"},"type":"Feature","geometry":{"type":"Point","coordinates":[18.0613099,59.3307611]}},{"id":"Leuven","properties":{"geo_accuracy":"city","town":"Leuven","geo_longitude":15.6245221,"geo_latitude":58.4098139,"country":"Belgium"},"type":"Feature","geometry":{"type":"Point","coordinates":[15.6245221,58.4098139]}},{"id":"Linköping","properties":{"geo_accuracy":"city","town":"Linköping","geo_longitude":10.5251064,"geo_latitude":52.2643004,"country":"Sweden"},"type":"Feature","geometry":{"type":"Point","coordinates":[10.5251064,52.2643004]}},{"id":"Braunschweig","properties":{"geo_accuracy":"city","town":"Braunschweig","geo_longitude":10.000654,"geo_latitude":53.5503414,"country":"Germany"},"type":"Feature","geometry":{"type":"Point","coordinates":[10.000654,53.5503414]}},{"id":"Hamburg","properties":{"geo_accuracy":"city","town":"Hamburg","geo_longitude":13.7384089767404,"geo_latitude":51.0763286,"country":"Germany"},"type":"Feature","geometry":{"type":"Point","coordinates":[13.7384089767404,51.0763286]}},{"id":"Dresden","properties":{"geo_accuracy":"administrative","town":"Dresden","geo_longitude":-80.5217786,"geo_latitude":43.4655524,"country":"Germany"},"type":"Feature","geometry":{"type":"Point","coordinates":[-80.5217786,43.4655524]}},{"id":"Waterloo, ON","properties":{"geo_accuracy":"city","town":"Waterloo, ON","geo_longitude":15.6245221,"geo_latitude":58.4098139,"country":"Canada"},"type":"Feature","geometry":{"type":"Point","coordinates":[15.6245221,58.4098139]}},{"id":"Linköping","properties":{"geo_accuracy":"administrative","town":"Linköping","geo_longitude":13.1929449,"geo_latitude":55.7029296,"country":"Sweden"},"type":"Feature","geometry":{"type":"Point","coordinates":[13.1929449,55.7029296]}},{"id":"Lund","properties":{"geo_accuracy":"city","town":"Lund","geo_longitude":-122.1634472,"geo_latitude":37.442156,"country":"Sweden"},"type":"Feature","geometry":{"type":"Point","coordinates":[-122.1634472,37.442156]}},{"id":"Palo Alto, CA","properties":{"geo_accuracy":"city","town":"Palo Alto, CA","geo_longitude":10.000654,"geo_latitude":53.5503414,"country":"USA"},"type":"Feature","geometry":{"type":"Point","coordinates":[10.000654,53.5503414]}},{"id":"Hamburg","properties":{"geo_accuracy":"state","town":"Hamburg","geo_longitude":10.0099133,"geo_latitude":53.5437641,"country":"Germany"},"type":"Feature","geometry":{"type":"Point","coordinates":[10.0099133,53.5437641]}},{"id":"Lund","properties":{"geo_accuracy":"administrative","town":"Lund","geo_longitude":13.1929449,"geo_latitude":55.7029296,"country":"Sweden"},"type":"Feature","geometry":{"type":"Point","coordinates":[13.1929449,55.7029296]}},{"id":"Linköping","properties":{"geo_accuracy":"city","town":"Linköping","geo_longitude":15.6245221,"geo_latitude":58.4098139,"country":"Sweden"},"type":"Feature","geometry":{"type":"Point","coordinates":[15.6245221,58.4098139]}},{"id":"Bielefeld","properties":{"geo_accuracy":"city","town":"Bielefeld","geo_longitude":8.5308962,"geo_latitude":52.0207745,"country":"Germany"},"type":"Feature","geometry":{"type":"Point","coordinates":[8.5308962,52.0207745]}},{"id":"Ann Arbor","properties":{"geo_accuracy":"city","town":"Ann Arbor","geo_longitude":-83.7312291,"geo_latitude":42.2681569,"country":" USA"},"type":"Feature","geometry":{"type":"Point","coordinates":[-83.7312291,42.2681569]}},{"id":"Munich","properties":{"geo_accuracy":"city","town":"Munich","geo_longitude":11.5754815,"geo_latitude":48.1372719,"country":" Germany"},"type":"Feature","geometry":{"type":"Point","coordinates":[11.5754815,48.1372719]}},{"id":"Paris","properties":{"geo_accuracy":"city","town":"Paris","geo_longitude":2.3521334,"geo_latitude":48.8565056,"country":"France"},"type":"Feature","geometry":{"type":"Point","coordinates":[2.3521334,48.8565056]}},{"id":"Beijing","properties":{"geo_accuracy":"administrative","town":"Beijing","geo_longitude":-80.5217786,"geo_latitude":43.4655524,"country":"China"},"type":"Feature","geometry":{"type":"Point","coordinates":[-80.5217786,43.4655524]}},{"id":"Waterloo","properties":{"geo_accuracy":"city","town":"Waterloo","geo_longitude":9.1829049,"geo_latitude":48.7763511,"country":"Canada"},"type":"Feature","geometry":{"type":"Point","coordinates":[9.1829049,48.7763511]}},{"id":"Stuttgart","properties":{"geo_accuracy":"administrative","town":"Stuttgart","geo_longitude":8.7757742,"geo_latitude":50.8117327,"country":"Germany"},"type":"Feature","geometry":{"type":"Point","coordinates":[8.7757742,50.8117327]}},{"id":"Marburg","properties":{"geo_accuracy":"city","town":"Marburg","geo_longitude":13.7384089767404,"geo_latitude":51.0763286,"country":" Germany"},"type":"Feature","geometry":{"type":"Point","coordinates":[13.7384089767404,51.0763286]}},{"id":"Dresden","properties":{"geo_accuracy":"city","town":"Dresden","geo_longitude":2.3521334,"geo_latitude":48.8565056,"country":" Germany"},"type":"Feature","geometry":{"type":"Point","coordinates":[2.3521334,48.8565056]}},{"id":"Chatou Cedex","properties":{"geo_accuracy":"city","town":"Chatou Cedex","geo_longitude":15.6245221,"geo_latitude":58.4098139,"country":"France"},"type":"Feature","geometry":{"type":"Point","coordinates":[15.6245221,58.4098139]}},{"id":"Bielefeld","properties":{"geo_accuracy":"administrative","town":"Bielefeld","geo_longitude":13.1929449,"geo_latitude":55.7029296,"country":"Germany"},"type":"Feature","geometry":{"type":"Point","coordinates":[13.1929449,55.7029296]}},{"id":"Linköping","properties":{"geo_accuracy":"city","town":"Linköping","geo_longitude":15.6245221,"geo_latitude":58.4098139,"country":" Sweden"},"type":"Feature","geometry":{"type":"Point","coordinates":[15.6245221,58.4098139]}},{"id":"Lund","properties":{"geo_accuracy":"city","town":"Lund","geo_longitude":16.3730908,"geo_latitude":48.2084671,"country":" Sweden"},"type":"Feature","geometry":{"type":"Point","coordinates":[16.3730908,48.2084671]}},{"id":"Linköping","properties":{"geo_accuracy":"city","town":"Linköping","geo_longitude":9.1906166,"geo_latitude":45.4666211,"country":" Sweden"},"type":"Feature","geometry":{"type":"Point","coordinates":[9.1906166,45.4666211]}},{"id":"Vienna","properties":{"geo_accuracy":"city","town":"Vienna","geo_longitude":13.7384089767404,"geo_latitude":51.0763286,"country":" Austria"},"type":"Feature","geometry":{"type":"Point","coordinates":[13.7384089767404,51.0763286]}},{"id":"Milan","properties":{"geo_accuracy":"town","town":"Milan","geo_longitude":-1.5356986,"geo_latitude":52.2921548,"country":" Italy"},"type":"Feature","geometry":{"type":"Point","coordinates":[-1.5356986,52.2921548]}},{"id":"Dresden","properties":{"geo_accuracy":"city","town":"Dresden","geo_longitude":10.000654,"geo_latitude":53.5503414,"country":" Germany"},"type":"Feature","geometry":{"type":"Point","coordinates":[10.000654,53.5503414]}},{"id":"Leamington Spa","properties":{"geo_accuracy":"city","town":"Leamington Spa","geo_longitude":9.1906166,"geo_latitude":45.4666211,"country":" UK"},"type":"Feature","geometry":{"type":"Point","coordinates":[9.1906166,45.4666211]}},{"id":"Hamburg","properties":{"geo_accuracy":"city","town":"Hamburg","geo_longitude":-4.4860088,"geo_latitude":48.3905283,"country":"Germany"},"type":"Feature","geometry":{"type":"Point","coordinates":[-4.4860088,48.3905283]}},{"id":"Milan","properties":{"geo_accuracy":"administrative","town":"Milan","geo_longitude":13.1929449,"geo_latitude":55.7029296,"country":" Italy"},"type":"Feature","geometry":{"type":"Point","coordinates":[13.1929449,55.7029296]}},{"id":"Brest","properties":{"geo_accuracy":"city","town":"Brest","geo_longitude":13.7384089767404,"geo_latitude":51.0763286,"country":" France"},"type":"Feature","geometry":{"type":"Point","coordinates":[13.7384089767404,51.0763286]}},{"id":"Lund","properties":{"geo_accuracy":"city","town":"Lund","geo_longitude":16.3730908,"geo_latitude":48.2084671,"country":" Sweden"},"type":"Feature","geometry":{"type":"Point","coordinates":[16.3730908,48.2084671]}},{"id":"Dresden","properties":{"geo_accuracy":"administrative","town":"Dresden","geo_longitude":13.1929449,"geo_latitude":55.7029296,"country":" Germany"},"type":"Feature","geometry":{"type":"Point","coordinates":[13.1929449,55.7029296]}},{"id":"Vienna","properties":{"geo_accuracy":"city","town":"Vienna","geo_longitude":16.3730908,"geo_latitude":48.2084671,"country":" Austria"},"type":"Feature","geometry":{"type":"Point","coordinates":[16.3730908,48.2084671]}},{"id":"Lund","properties":{"geo_accuracy":"city","town":"Lund","geo_longitude":15.6245221,"geo_latitude":58.4098139,"country":" Sweden"},"type":"Feature","geometry":{"type":"Point","coordinates":[15.6245221,58.4098139]}},{"id":"Vienna","properties":{"geo_accuracy":"city","town":"Vienna","geo_longitude":-8.653533,"geo_latitude":40.6410162,"country":"Austria"},"type":"Feature","geometry":{"type":"Point","coordinates":[-8.653533,40.6410162]}},{"id":"Linköping","properties":{"geo_accuracy":"city","town":"Linköping","geo_longitude":16.3730908,"geo_latitude":48.2084671,"country":" Sweden"},"type":"Feature","geometry":{"type":"Point","coordinates":[16.3730908,48.2084671]}},{"id":"Aveiro","properties":{"geo_accuracy":"city","town":"Aveiro","geo_longitude":8.4672361,"geo_latitude":49.4895914,"country":" Portugal"},"type":"Feature","geometry":{"type":"Point","coordinates":[8.4672361,49.4895914]}},{"id":"Vienna","properties":{"geo_accuracy":"city","town":"Vienna","geo_longitude":15.6245221,"geo_latitude":58.4098139,"country":" Austria"},"type":"Feature","geometry":{"type":"Point","coordinates":[15.6245221,58.4098139]}},{"id":"Mannheim","properties":{"geo_accuracy":"city","town":"Mannheim","geo_longitude":16.3730908,"geo_latitude":48.2084671,"country":" Germany"},"type":"Feature","geometry":{"type":"Point","coordinates":[16.3730908,48.2084671]}},{"id":"Dresden","properties":{"geo_accuracy":"city","town":"Dresden","geo_longitude":11.5754815,"geo_latitude":48.1372719,"country":"Germany"},"type":"Feature","geometry":{"type":"Point","coordinates":[11.5754815,48.1372719]}},{"id":"Linköping","properties":{"geo_accuracy":"city","town":"Linköping","geo_longitude":-83.0567375,"geo_latitude":42.3486635,"country":" Sweden"},"type":"Feature","geometry":{"type":"Point","coordinates":[-83.0567375,42.3486635]}},{"id":"Vienna","properties":{"geo_accuracy":"city","town":"Vienna","geo_longitude":18.0613099,"geo_latitude":59.3307611,"country":" Austria"},"type":"Feature","geometry":{"type":"Point","coordinates":[18.0613099,59.3307611]}},{"id":"Munich","properties":{"geo_accuracy":"city","town":"Munich","geo_longitude":10.5251064,"geo_latitude":52.2643004,"country":" Germany"},"type":"Feature","geometry":{"type":"Point","coordinates":[10.5251064,52.2643004]}},{"id":"Detroit?","properties":{"geo_accuracy":"city","town":"Detroit?","geo_longitude":15.6245221,"geo_latitude":58.4098139,"country":" USA"},"type":"Feature","geometry":{"type":"Point","coordinates":[15.6245221,58.4098139]}},{"id":"Stockholm","properties":{"geo_accuracy":"administrative","town":"Stockholm","geo_longitude":13.1929449,"geo_latitude":55.7029296,"country":" Sweden"},"type":"Feature","geometry":{"type":"Point","coordinates":[13.1929449,55.7029296]}},{"id":"Braunschweig","properties":{"geo_accuracy":"city","town":"Braunschweig","geo_longitude":-1.510477,"geo_latitude":52.4081812,"country":" Germany"},"type":"Feature","geometry":{"type":"Point","coordinates":[-1.510477,52.4081812]}},{"id":"Linköping","properties":{"geo_accuracy":"city","town":"Linköping","geo_longitude":15.6245221,"geo_latitude":58.4098139,"country":" Sweden"},"type":"Feature","geometry":{"type":"Point","coordinates":[15.6245221,58.4098139]}},{"id":"Lund","properties":{"geo_accuracy":"city","town":"Lund","geo_longitude":13.7384089767404,"geo_latitude":51.0763286,"country":" Sweden"},"type":"Feature","geometry":{"type":"Point","coordinates":[13.7384089767404,51.0763286]}},{"id":"Coventry","properties":{"geo_accuracy":"administrative","town":"Coventry","geo_longitude":13.1929449,"geo_latitude":55.7029296,"country":" United Kingdom"},"type":"Feature","geometry":{"type":"Point","coordinates":[13.1929449,55.7029296]}},{"id":"St. Andrä-Wördern","properties":{"geo_accuracy":"city","town":"St. Andrä-Wördern","geo_longitude":13.3888599,"geo_latitude":52.5170365,"country":" Austria"},"type":"Feature","geometry":{"type":"Point","coordinates":[13.3888599,52.5170365]}},{"id":"Linköping","properties":{"geo_accuracy":"city","town":"Linköping","geo_longitude":15.6245221,"geo_latitude":58.4098139,"country":" Sweden"},"type":"Feature","geometry":{"type":"Point","coordinates":[15.6245221,58.4098139]}},{"id":"Dresden","properties":{"geo_accuracy":"city","town":"Dresden","geo_longitude":11.9670171,"geo_latitude":57.7072326,"country":" Germany"},"type":"Feature","geometry":{"type":"Point","coordinates":[11.9670171,57.7072326]}},{"id":"Lund","properties":{"geo_accuracy":"city","town":"Lund","geo_longitude":15.6245221,"geo_latitude":58.4098139,"country":" Sweden"},"type":"Feature","geometry":{"type":"Point","coordinates":[15.6245221,58.4098139]}},{"id":"Berlin","properties":{"geo_accuracy":"station","town":"Berlin","geo_longitude":24.6569676,"geo_latitude":60.2051454,"country":" Germany"},"type":"Feature","geometry":{"type":"Point","coordinates":[24.6569676,60.2051454]}},{"id":"Linköping","properties":{"geo_accuracy":"city","town":"Linköping","geo_longitude":15.6245221,"geo_latitude":58.4098139,"country":" Sweden"},"type":"Feature","geometry":{"type":"Point","coordinates":[15.6245221,58.4098139]}},{"id":"Palo Alto, CA","properties":{"geo_accuracy":"city","town":"Palo Alto, CA","geo_longitude":13.3888599,"geo_latitude":52.5170365,"country":"USA"},"type":"Feature","geometry":{"type":"Point","coordinates":[13.3888599,52.5170365]}},{"id":"Chatou Cedex","properties":{"geo_accuracy":"administrative","town":"Chatou Cedex","geo_longitude":9.4797531,"geo_latitude":47.6505715,"country":"France"},"type":"Feature","geometry":{"type":"Point","coordinates":[9.4797531,47.6505715]}},{"id":"Goteborg","properties":{"geo_accuracy":"city","town":"Goteborg","geo_longitude":10.5251064,"geo_latitude":52.2643004,"country":" Sweden"},"type":"Feature","geometry":{"type":"Point","coordinates":[10.5251064,52.2643004]}},{"id":"Linköping?","properties":{"geo_accuracy":"city","town":"Linköping?","geo_longitude":16.3730908,"geo_latitude":48.2084671,"country":"Sweden"},"type":"Feature","geometry":{"type":"Point","coordinates":[16.3730908,48.2084671]}},{"id":"Espoo","properties":{"geo_accuracy":"city","town":"Espoo","geo_longitude":10.000654,"geo_latitude":53.5503414,"country":" Finland"},"type":"Feature","geometry":{"type":"Point","coordinates":[10.000654,53.5503414]}},{"id":"Linköping","properties":{"geo_accuracy":"city","town":"Linköping","geo_longitude":13.7384089767404,"geo_latitude":51.0763286,"country":" Sweden"},"type":"Feature","geometry":{"type":"Point","coordinates":[13.7384089767404,51.0763286]}},{"id":"Berlin?","properties":{"geo_accuracy":"administrative","town":"Berlin?","geo_longitude":10.9812156790933,"geo_latitude":49.58917705,"country":"Germany"},"type":"Feature","geometry":{"type":"Point","coordinates":[10.9812156790933,49.58917705]}},{"id":"Friedrichshafen","properties":{"geo_accuracy":"city","town":"Friedrichshafen","geo_longitude":18.0613099,"geo_latitude":59.3307611,"country":"Germany"},"type":"Feature","geometry":{"type":"Point","coordinates":[18.0613099,59.3307611]}},{"id":"Braunschweig","properties":{"geo_accuracy":"city","town":"Braunschweig","geo_longitude":13.7384089767404,"geo_latitude":51.0763286,"country":" Germany"},"type":"Feature","geometry":{"type":"Point","coordinates":[13.7384089767404,51.0763286]}},{"id":"Vienna","properties":{"geo_accuracy":"administrative","town":"Vienna","geo_longitude":13.1929449,"geo_latitude":55.7029296,"country":" Austria"},"type":"Feature","geometry":{"type":"Point","coordinates":[13.1929449,55.7029296]}},{"id":"Hamburg","properties":{"geo_accuracy":"city","town":"Hamburg","geo_longitude":16.3730908,"geo_latitude":48.2084671,"country":"Germany"},"type":"Feature","geometry":{"type":"Point","coordinates":[16.3730908,48.2084671]}},{"id":"Dresden","properties":{"geo_accuracy":"administrative","town":"Dresden","geo_longitude":13.1929449,"geo_latitude":55.7029296,"country":" Germany"},"type":"Feature","geometry":{"type":"Point","coordinates":[13.1929449,55.7029296]}},{"id":"Erlangen","properties":{"geo_accuracy":"administrative","town":"Erlangen","geo_longitude":13.1929449,"geo_latitude":55.7029296,"country":" Germany"},"type":"Feature","geometry":{"type":"Point","coordinates":[13.1929449,55.7029296]}},{"id":"Stockholm","properties":{"geo_accuracy":"city","town":"Stockholm","geo_longitude":13.3888599,"geo_latitude":52.5170365,"country":" Sweden"},"type":"Feature","geometry":{"type":"Point","coordinates":[13.3888599,52.5170365]}},{"id":"Dresden","properties":{"geo_accuracy":"city","town":"Dresden","geo_longitude":13.3888599,"geo_latitude":52.5170365,"country":"Germany"},"type":"Feature","geometry":{"type":"Point","coordinates":[13.3888599,52.5170365]}},{"id":"Lund","properties":{"geo_accuracy":"city","town":"Lund","geo_longitude":13.7384089767404,"geo_latitude":51.0763286,"country":" Sweden"},"type":"Feature","geometry":{"type":"Point","coordinates":[13.7384089767404,51.0763286]}},{"id":"Vienna","properties":{"geo_accuracy":"city","town":"Vienna","geo_longitude":-83.1763145,"geo_latitude":42.3222599,"country":" Austria"},"type":"Feature","geometry":{"type":"Point","coordinates":[-83.1763145,42.3222599]}},{"id":"Lund","properties":{"geo_accuracy":"city","town":"Lund","geo_longitude":2.3521334,"geo_latitude":48.8565056,"country":" Sweden"},"type":"Feature","geometry":{"type":"Point","coordinates":[2.3521334,48.8565056]}},{"id":"Lund","properties":{"geo_accuracy":"city","town":"Lund","geo_longitude":15.6245221,"geo_latitude":58.4098139,"country":" Sweden"},"type":"Feature","geometry":{"type":"Point","coordinates":[15.6245221,58.4098139]}},{"id":"Berlin","properties":{"geo_accuracy":"city","town":"Berlin","geo_longitude":15.6245221,"geo_latitude":58.4098139,"country":" Germany"},"type":"Feature","geometry":{"type":"Point","coordinates":[15.6245221,58.4098139]}},{"id":"Berlin","properties":{"geo_accuracy":"administrative","town":"Berlin","geo_longitude":13.1929449,"geo_latitude":55.7029296,"country":"Germany"},"type":"Feature","geometry":{"type":"Point","coordinates":[13.1929449,55.7029296]}},{"id":"Dresden","properties":{"geo_accuracy":"village","town":"Dresden","geo_longitude":11.2649062,"geo_latitude":48.0732582,"country":" Germany"},"type":"Feature","geometry":{"type":"Point","coordinates":[11.2649062,48.0732582]}},{"id":"Dearborn","properties":{"geo_accuracy":"city","town":"Dearborn","geo_longitude":13.3888599,"geo_latitude":52.5170365,"country":" USA"},"type":"Feature","geometry":{"type":"Point","coordinates":[13.3888599,52.5170365]}},{"id":"Paris","properties":{"geo_accuracy":"city","town":"Paris","geo_longitude":15.6245221,"geo_latitude":58.4098139,"country":" France"},"type":"Feature","geometry":{"type":"Point","coordinates":[15.6245221,58.4098139]}},{"id":"Linköping","properties":{"geo_accuracy":"administrative","town":"Linköping","geo_longitude":13.1929449,"geo_latitude":55.7029296,"country":" Sweden"},"type":"Feature","geometry":{"type":"Point","coordinates":[13.1929449,55.7029296]}},{"id":"Linköping?","properties":{"geo_accuracy":"administrative","town":"Linköping?","geo_longitude":2.1906082,"geo_latitude":48.7826191,"country":"Sweden"},"type":"Feature","geometry":{"type":"Point","coordinates":[2.1906082,48.7826191]}},{"id":"Lund","properties":{"geo_accuracy":"city","town":"Lund","geo_longitude":10.5251064,"geo_latitude":52.2643004,"country":" Sweden"},"type":"Feature","geometry":{"type":"Point","coordinates":[10.5251064,52.2643004]}},{"id":"Oberpfaffenhofen","properties":{"geo_accuracy":"city","town":"Oberpfaffenhofen","geo_longitude":15.6245221,"geo_latitude":58.4098139,"country":" Germany"},"type":"Feature","geometry":{"type":"Point","coordinates":[15.6245221,58.4098139]}},{"id":"Berlin","properties":{"geo_accuracy":"city","town":"Berlin","geo_longitude":18.0613099,"geo_latitude":59.3307611,"country":" Germany"},"type":"Feature","geometry":{"type":"Point","coordinates":[18.0613099,59.3307611]}},{"id":"Linköping","properties":{"geo_accuracy":"city","town":"Linköping","geo_longitude":15.6245221,"geo_latitude":58.4098139,"country":" Sweden"},"type":"Feature","geometry":{"type":"Point","coordinates":[15.6245221,58.4098139]}},{"id":"Lund","properties":{"geo_accuracy":"city","town":"Lund","geo_longitude":15.6245221,"geo_latitude":58.4098139,"country":" Sweden"},"type":"Feature","geometry":{"type":"Point","coordinates":[15.6245221,58.4098139]}},{"id":"Vélizy","properties":{"geo_accuracy":"city","town":"Vélizy","geo_longitude":13.7384089767404,"geo_latitude":51.0763286,"country":"France"},"type":"Feature","geometry":{"type":"Point","coordinates":[13.7384089767404,51.0763286]}},{"id":"Braunschweig","properties":{"geo_accuracy":"city","town":"Braunschweig","geo_longitude":11.5754815,"geo_latitude":48.1372719,"country":" Germany"},"type":"Feature","geometry":{"type":"Point","coordinates":[11.5754815,48.1372719]}},{"id":"Linköping","properties":{"geo_accuracy":"city","town":"Linköping","geo_longitude":13.7384089767404,"geo_latitude":51.0763286,"country":" Sweden"},"type":"Feature","geometry":{"type":"Point","coordinates":[13.7384089767404,51.0763286]}},{"id":"Stockholm","properties":{"geo_accuracy":"city","town":"Stockholm","geo_longitude":11.5754815,"geo_latitude":48.1372719,"country":" Sweden"},"type":"Feature","geometry":{"type":"Point","coordinates":[11.5754815,48.1372719]}},{"id":"Linköping","properties":{"geo_accuracy":"city","town":"Linköping","geo_longitude":13.7384089767404,"geo_latitude":51.0763286,"country":" Sweden"},"type":"Feature","geometry":{"type":"Point","coordinates":[13.7384089767404,51.0763286]}},{"id":"Linköping?","properties":{"geo_accuracy":"administrative","town":"Linköping?","geo_longitude":-80.5217786,"geo_latitude":43.4655524,"country":"Sweden"},"type":"Feature","geometry":{"type":"Point","coordinates":[-80.5217786,43.4655524]}},{"id":"Dresden","properties":{"geo_accuracy":"village","town":"Dresden","geo_longitude":11.2649062,"geo_latitude":48.0732582,"country":" Germany"},"type":"Feature","geometry":{"type":"Point","coordinates":[11.2649062,48.0732582]}},{"id":"Munich","properties":{"geo_accuracy":"city","town":"Munich","geo_longitude":16.3730908,"geo_latitude":48.2084671,"country":"Germany"},"type":"Feature","geometry":{"type":"Point","coordinates":[16.3730908,48.2084671]}},{"id":"Dresden","properties":{"geo_accuracy":"city","town":"Dresden","geo_longitude":15.6245221,"geo_latitude":58.4098139,"country":" Germany"},"type":"Feature","geometry":{"type":"Point","coordinates":[15.6245221,58.4098139]}},{"id":"Munich","properties":{"geo_accuracy":"city","town":"Munich","geo_longitude":-122.989827,"geo_latitude":45.5228939,"country":" Germany"},"type":"Feature","geometry":{"type":"Point","coordinates":[-122.989827,45.5228939]}},{"id":"Dresden","properties":{"geo_accuracy":"city","town":"Dresden","geo_longitude":15.6245221,"geo_latitude":58.4098139,"country":"Germany"},"type":"Feature","geometry":{"type":"Point","coordinates":[15.6245221,58.4098139]}},{"id":"Waterloo, ON","properties":{"geo_accuracy":"village","town":"Waterloo, ON","geo_longitude":11.2649062,"geo_latitude":48.0732582,"country":"Canada"},"type":"Feature","geometry":{"type":"Point","coordinates":[11.2649062,48.0732582]}},{"id":"Oberpfaffenhofen","properties":{"geo_accuracy":"city","town":"Oberpfaffenhofen","geo_longitude":2.3521334,"geo_latitude":48.8565056,"country":" Germany"},"type":"Feature","geometry":{"type":"Point","coordinates":[2.3521334,48.8565056]}},{"id":"Vienna","properties":{"geo_accuracy":"administrative","town":"Vienna","geo_longitude":-83.4868324168246,"geo_latitude":42.3074635,"country":" Austria"},"type":"Feature","geometry":{"type":"Point","coordinates":[-83.4868324168246,42.3074635]}},{"id":"Linköping","properties":{"geo_accuracy":"city","town":"Linköping","geo_longitude":15.6245221,"geo_latitude":58.4098139,"country":"Sweden"},"type":"Feature","geometry":{"type":"Point","coordinates":[15.6245221,58.4098139]}},{"id":"Hillsboro, OR","properties":{"geo_accuracy":"city","town":"Hillsboro, OR","geo_longitude":-72.6905856293072,"geo_latitude":41.765599,"country":"USA"},"type":"Feature","geometry":{"type":"Point","coordinates":[-72.6905856293072,41.765599]}},{"id":"Linköping?","properties":{"geo_accuracy":"city","town":"Linköping?","geo_longitude":-122.1634472,"geo_latitude":37.442156,"country":"Sweden"},"type":"Feature","geometry":{"type":"Point","coordinates":[-122.1634472,37.442156]}},{"id":"Oberpfaffenhofen","properties":{"geo_accuracy":"city","town":"Oberpfaffenhofen","geo_longitude":13.7384089767404,"geo_latitude":51.0763286,"country":" Germany"},"type":"Feature","geometry":{"type":"Point","coordinates":[13.7384089767404,51.0763286]}},{"id":"Saint-Cloud, Paris","properties":{"geo_accuracy":"administrative","town":"Saint-Cloud, Paris","geo_longitude":-80.5217786,"geo_latitude":43.4655524,"country":" France"},"type":"Feature","geometry":{"type":"Point","coordinates":[-80.5217786,43.4655524]}},{"id":"Canton, Michigan","properties":{"geo_accuracy":"city","town":"Canton, Michigan","geo_longitude":10.000654,"geo_latitude":53.5503414,"country":" USA"},"type":"Feature","geometry":{"type":"Point","coordinates":[10.000654,53.5503414]}},{"id":"Linköping","properties":{"geo_accuracy":"administrative","town":"Linköping","geo_longitude":-80.5217786,"geo_latitude":43.4655524,"country":" Sweden"},"type":"Feature","geometry":{"type":"Point","coordinates":[-80.5217786,43.4655524]}},{"id":"Hartford, CT","properties":{"geo_accuracy":"city","town":"Hartford, CT","geo_longitude":16.3730908,"geo_latitude":48.2084671,"country":"USA"},"type":"Feature","geometry":{"type":"Point","coordinates":[16.3730908,48.2084671]}},{"id":"Palo Alto, CA","properties":{"geo_accuracy":"city","town":"Palo Alto, CA","geo_longitude":5.7210773,"geo_latitude":45.182478,"country":"USA"},"type":"Feature","geometry":{"type":"Point","coordinates":[5.7210773,45.182478]}},{"id":"Dresden","properties":{"geo_accuracy":"city","town":"Dresden","geo_longitude":-122.2728247,"geo_latitude":37.8708789,"country":" Germany"},"type":"Feature","geometry":{"type":"Point","coordinates":[-122.2728247,37.8708789]}},{"id":"Waterloo, ON","properties":{"geo_accuracy":"administrative","town":"Waterloo, ON","geo_longitude":8.3086822,"geo_latitude":47.4736827,"country":"Canada"},"type":"Feature","geometry":{"type":"Point","coordinates":[8.3086822,47.4736827]}},{"id":"Hamburg?","properties":{"geo_accuracy":"administrative","town":"Hamburg?","geo_longitude":9.73565477685913,"geo_latitude":59.103524,"country":" Germany"},"type":"Feature","geometry":{"type":"Point","coordinates":[9.73565477685913,59.103524]}},{"id":"Waterloo, ON","properties":{"geo_accuracy":"city","town":"Waterloo, ON","geo_longitude":10.000654,"geo_latitude":53.5503414,"country":" Canada"},"type":"Feature","geometry":{"type":"Point","coordinates":[10.000654,53.5503414]}},{"id":"Vienna","properties":{"geo_accuracy":"village","town":"Vienna","geo_longitude":11.2649062,"geo_latitude":48.0732582,"country":"Austria"},"type":"Feature","geometry":{"type":"Point","coordinates":[11.2649062,48.0732582]}},{"id":"Grenoble","properties":{"geo_accuracy":"administrative","town":"Grenoble","geo_longitude":13.1929449,"geo_latitude":55.7029296,"country":" France"},"type":"Feature","geometry":{"type":"Point","coordinates":[13.1929449,55.7029296]}},{"id":"Berkeley, CA","properties":{"geo_accuracy":"city","town":"Berkeley, CA","geo_longitude":-122.2728247,"geo_latitude":37.8708789,"country":" USA"},"type":"Feature","geometry":{"type":"Point","coordinates":[-122.2728247,37.8708789]}},{"id":"Baden","properties":{"geo_accuracy":"administrative","town":"Baden","geo_longitude":8.3086822,"geo_latitude":47.4736827,"country":" Switzerland"},"type":"Feature","geometry":{"type":"Point","coordinates":[8.3086822,47.4736827]}},{"id":"Porsgrunn","properties":{"geo_accuracy":"administrative","town":"Porsgrunn","geo_longitude":9.73565477685913,"geo_latitude":59.103524,"country":" Norway"},"type":"Feature","geometry":{"type":"Point","coordinates":[9.73565477685913,59.103524]}},{"id":"Hamburg","properties":{"geo_accuracy":"state","town":"Hamburg","geo_longitude":10.0099133,"geo_latitude":53.5437641,"country":" Germany"},"type":"Feature","geometry":{"type":"Point","coordinates":[10.0099133,53.5437641]}},{"id":"Oberpfaffenhofen","properties":{"geo_accuracy":"village","town":"Oberpfaffenhofen","geo_longitude":11.2649062,"geo_latitude":48.0732582,"country":" Germany"},"type":"Feature","geometry":{"type":"Point","coordinates":[11.2649062,48.0732582]}},{"id":"Lund","properties":{"geo_accuracy":"administrative","town":"Lund","geo_longitude":13.1929449,"geo_latitude":55.7029296,"country":"Sweden"},"type":"Feature","geometry":{"type":"Point","coordinates":[13.1929449,55.7029296]}}],"type":"FeatureCollection"}