{"features":[{"id":"Vienna","properties":{"town":"Vienna","geo_longitude":16.3730908,"geo_latitude":48.2084671,"country":"Austria"},"type":"Feature","geometry":{"type":"Point","coordinates":[16.3730908,48.2084671]}},{"id":"Palo Alto, CA","properties":{"town":"Palo Alto, CA","geo_longitude":-122.1634472,"geo_latitude":37.442156,"country":"USA"},"type":"Feature","geometry":{"type":"Point","coordinates":[-122.1634472,37.442156]}},{"id":"Oberpfaffenhofen","properties":{"town":"Oberpfaffenhofen","geo_longitude":11.2649062,"geo_latitude":48.0732582,"country":"Germany"},"type":"Feature","geometry":{"type":"Point","coordinates":[11.2649062,48.0732582]}},{"id":"Lund","properties":{"town":"Lund","geo_longitude":13.1929449,"geo_latitude":55.7029296,"country":"Sweden"},"type":"Feature","geometry":{"type":"Point","coordinates":[13.1929449,55.7029296]}},{"id":"Paris","properties":{"town":"Paris","geo_longitude":2.3521334,"geo_latitude":48.8565056,"country":"France"},"type":"Feature","geometry":{"type":"Point","coordinates":[2.3521334,48.8565056]}},{"id":"Leuven","properties":{"town":"Leuven","geo_longitude":4.7014992,"geo_latitude":50.8790369,"country":"Belgium"},"type":"Feature","geometry":{"type":"Point","coordinates":[4.7014992,50.8790369]}},{"id":"Stockholm","properties":{"town":"Stockholm","geo_longitude":18.0613099,"geo_latitude":59.3307611,"country":"Sweden"},"type":"Feature","geometry":{"type":"Point","coordinates":[18.0613099,59.3307611]}},{"id":"Linköping","properties":{"town":"Linköping","geo_longitude":15.6245221,"geo_latitude":58.4098139,"country":"Sweden"},"type":"Feature","geometry":{"type":"Point","coordinates":[15.6245221,58.4098139]}},{"id":"Braunschweig","properties":{"town":"Braunschweig","geo_longitude":10.5251064,"geo_latitude":52.2643004,"country":"Germany"},"type":"Feature","geometry":{"type":"Point","coordinates":[10.5251064,52.2643004]}},{"id":"Hamburg","properties":{"town":"Hamburg","geo_longitude":10.000654,"geo_latitude":53.5503414,"country":"Germany"},"type":"Feature","geometry":{"type":"Point","coordinates":[10.000654,53.5503414]}},{"id":"Dresden","properties":{"town":"Dresden","geo_longitude":13.7384089767404,"geo_latitude":51.0763286,"country":"Germany"},"type":"Feature","geometry":{"type":"Point","coordinates":[13.7384089767404,51.0763286]}},{"id":"Waterloo, ON","properties":{"town":"Waterloo, ON","geo_longitude":-80.5217786,"geo_latitude":43.4655524,"country":"Canada"},"type":"Feature","geometry":{"type":"Point","coordinates":[-80.5217786,43.4655524]}},{"id":"Linköping","properties":{"town":"Linköping","geo_longitude":15.6245221,"geo_latitude":58.4098139,"country":"Sweden"},"type":"Feature","geometry":{"type":"Point","coordinates":[15.6245221,58.4098139]}},{"id":"Lund","properties":{"town":"Lund","geo_longitude":13.1929449,"geo_latitude":55.7029296,"country":"Sweden"},"type":"Feature","geometry":{"type":"Point","coordinates":[13.1929449,55.7029296]}},{"id":"Palo Alto, CA","properties":{"town":"Palo Alto, CA","geo_longitude":-122.1634472,"geo_latitude":37.442156,"country":"USA"},"type":"Feature","geometry":{"type":"Point","coordinates":[-122.1634472,37.442156]}},{"id":"Hamburg","properties":{"town":"Hamburg","geo_longitude":10.000654,"geo_latitude":53.5503414,"country":"Germany"},"type":"Feature","geometry":{"type":"Point","coordinates":[10.000654,53.5503414]}},{"id":"Lund","properties":{"town":"Lund","geo_longitude":13.1929449,"geo_latitude":55.7029296,"country":"Sweden"},"type":"Feature","geometry":{"type":"Point","coordinates":[13.1929449,55.7029296]}},{"id":"Linköping","properties":{"town":"Linköping","geo_longitude":15.6245221,"geo_latitude":58.4098139,"country":"Sweden"},"type":"Feature","geometry":{"type":"Point","coordinates":[15.6245221,58.4098139]}},{"id":"Bielefeld","properties":{"town":"Bielefeld","geo_longitude":8.5308962,"geo_latitude":52.0207745,"country":"Germany"},"type":"Feature","geometry":{"type":"Point","coordinates":[8.5308962,52.0207745]}},{"id":"Ann Arbor","properties":{"town":"Ann Arbor","geo_longitude":-83.7312291,"geo_latitude":42.2681569,"country":" USA"},"type":"Feature","geometry":{"type":"Point","coordinates":[-83.7312291,42.2681569]}},{"id":"Munich","properties":{"town":"Munich","geo_longitude":11.5754815,"geo_latitude":48.1372719,"country":" Germany"},"type":"Feature","geometry":{"type":"Point","coordinates":[11.5754815,48.1372719]}},{"id":"Paris","properties":{"town":"Paris","geo_longitude":2.3521334,"geo_latitude":48.8565056,"country":"France"},"type":"Feature","geometry":{"type":"Point","coordinates":[2.3521334,48.8565056]}},{"id":"Waterloo","properties":{"town":"Waterloo","geo_longitude":-80.5217786,"geo_latitude":43.4655524,"country":"Canada"},"type":"Feature","geometry":{"type":"Point","coordinates":[-80.5217786,43.4655524]}},{"id":"Stuttgart","properties":{"town":"Stuttgart","geo_longitude":9.1829049,"geo_latitude":48.7763511,"country":"Germany"},"type":"Feature","geometry":{"type":"Point","coordinates":[9.1829049,48.7763511]}},{"id":"Marburg","properties":{"town":"Marburg","geo_longitude":8.7757742,"geo_latitude":50.8117327,"country":" Germany"},"type":"Feature","geometry":{"type":"Point","coordinates":[8.7757742,50.8117327]}},{"id":"Dresden","properties":{"town":"Dresden","geo_longitude":13.7384089767404,"geo_latitude":51.0763286,"country":" Germany"},"type":"Feature","geometry":{"type":"Point","coordinates":[13.7384089767404,51.0763286]}},{"id":"Paris","properties":{"town":"Paris","geo_longitude":2.3521334,"geo_latitude":48.8565056,"country":"France"},"type":"Feature","geometry":{"type":"Point","coordinates":[2.3521334,48.8565056]}},{"id":"Linköping","properties":{"town":"Linköping","geo_longitude":15.6245221,"geo_latitude":58.4098139,"country":" Sweden"},"type":"Feature","geometry":{"type":"Point","coordinates":[15.6245221,58.4098139]}},{"id":"Lund","properties":{"town":"Lund","geo_longitude":13.1929449,"geo_latitude":55.7029296,"country":" Sweden"},"type":"Feature","geometry":{"type":"Point","coordinates":[13.1929449,55.7029296]}},{"id":"Linköping","properties":{"town":"Linköping","geo_longitude":15.6245221,"geo_latitude":58.4098139,"country":" Sweden"},"type":"Feature","geometry":{"type":"Point","coordinates":[15.6245221,58.4098139]}},{"id":"Vienna","properties":{"town":"Vienna","geo_longitude":16.3730908,"geo_latitude":48.2084671,"country":" Austria"},"type":"Feature","geometry":{"type":"Point","coordinates":[16.3730908,48.2084671]}},{"id":"Milan","properties":{"town":"Milan","geo_longitude":9.1906166,"geo_latitude":45.4666211,"country":" Italy"},"type":"Feature","geometry":{"type":"Point","coordinates":[9.1906166,45.4666211]}},{"id":"Dresden","properties":{"town":"Dresden","geo_longitude":13.7384089767404,"geo_latitude":51.0763286,"country":" Germany"},"type":"Feature","geometry":{"type":"Point","coordinates":[13.7384089767404,51.0763286]}},{"id":"Leamington Spa","properties":{"town":"Leamington Spa","geo_longitude":-1.5356986,"geo_latitude":52.2921548,"country":" UK"},"type":"Feature","geometry":{"type":"Point","coordinates":[-1.5356986,52.2921548]}},{"id":"Hamburg","properties":{"town":"Hamburg","geo_longitude":10.000654,"geo_latitude":53.5503414,"country":"Germany"},"type":"Feature","geometry":{"type":"Point","coordinates":[10.000654,53.5503414]}},{"id":"Milan","properties":{"town":"Milan","geo_longitude":9.1906166,"geo_latitude":45.4666211,"country":" Italy"},"type":"Feature","geometry":{"type":"Point","coordinates":[9.1906166,45.4666211]}},{"id":"Brest","properties":{"town":"Brest","geo_longitude":-4.4860088,"geo_latitude":48.3905283,"country":" France"},"type":"Feature","geometry":{"type":"Point","coordinates":[-4.4860088,48.3905283]}},{"id":"Lund","properties":{"town":"Lund","geo_longitude":13.1929449,"geo_latitude":55.7029296,"country":" Sweden"},"type":"Feature","geometry":{"type":"Point","coordinates":[13.1929449,55.7029296]}},{"id":"Dresden","properties":{"town":"Dresden","geo_longitude":13.7384089767404,"geo_latitude":51.0763286,"country":" Germany"},"type":"Feature","geometry":{"type":"Point","coordinates":[13.7384089767404,51.0763286]}},{"id":"Vienna","properties":{"town":"Vienna","geo_longitude":16.3730908,"geo_latitude":48.2084671,"country":" Austria"},"type":"Feature","geometry":{"type":"Point","coordinates":[16.3730908,48.2084671]}},{"id":"Lund","properties":{"town":"Lund","geo_longitude":13.1929449,"geo_latitude":55.7029296,"country":" Sweden"},"type":"Feature","geometry":{"type":"Point","coordinates":[13.1929449,55.7029296]}},{"id":"Vienna","properties":{"town":"Vienna","geo_longitude":16.3730908,"geo_latitude":48.2084671,"country":"Austria"},"type":"Feature","geometry":{"type":"Point","coordinates":[16.3730908,48.2084671]}},{"id":"Linköping","properties":{"town":"Linköping","geo_longitude":15.6245221,"geo_latitude":58.4098139,"country":" Sweden"},"type":"Feature","geometry":{"type":"Point","coordinates":[15.6245221,58.4098139]}},{"id":"Aveiro","properties":{"town":"Aveiro","geo_longitude":-8.653533,"geo_latitude":40.6410162,"country":" Portugal"},"type":"Feature","geometry":{"type":"Point","coordinates":[-8.653533,40.6410162]}},{"id":"Vienna","properties":{"town":"Vienna","geo_longitude":16.3730908,"geo_latitude":48.2084671,"country":" Austria"},"type":"Feature","geometry":{"type":"Point","coordinates":[16.3730908,48.2084671]}},{"id":"Mannheim","properties":{"town":"Mannheim","geo_longitude":8.4672361,"geo_latitude":49.4895914,"country":" Germany"},"type":"Feature","geometry":{"type":"Point","coordinates":[8.4672361,49.4895914]}},{"id":"Linköping","properties":{"town":"Linköping","geo_longitude":15.6245221,"geo_latitude":58.4098139,"country":" Sweden"},"type":"Feature","geometry":{"type":"Point","coordinates":[15.6245221,58.4098139]}},{"id":"Vienna","properties":{"town":"Vienna","geo_longitude":16.3730908,"geo_latitude":48.2084671,"country":" Austria"},"type":"Feature","geometry":{"type":"Point","coordinates":[16.3730908,48.2084671]}},{"id":"Munich","properties":{"town":"Munich","geo_longitude":11.5754815,"geo_latitude":48.1372719,"country":" Germany"},"type":"Feature","geometry":{"type":"Point","coordinates":[11.5754815,48.1372719]}},{"id":"Detroit?","properties":{"town":"Detroit?","geo_longitude":-83.0567375,"geo_latitude":42.3486635,"country":" USA"},"type":"Feature","geometry":{"type":"Point","coordinates":[-83.0567375,42.3486635]}},{"id":"Stockholm","properties":{"town":"Stockholm","geo_longitude":18.0613099,"geo_latitude":59.3307611,"country":" Sweden"},"type":"Feature","geometry":{"type":"Point","coordinates":[18.0613099,59.3307611]}},{"id":"Braunschweig","properties":{"town":"Braunschweig","geo_longitude":10.5251064,"geo_latitude":52.2643004,"country":" Germany"},"type":"Feature","geometry":{"type":"Point","coordinates":[10.5251064,52.2643004]}},{"id":"Linköping","properties":{"town":"Linköping","geo_longitude":15.6245221,"geo_latitude":58.4098139,"country":" Sweden"},"type":"Feature","geometry":{"type":"Point","coordinates":[15.6245221,58.4098139]}},{"id":"Lund","properties":{"town":"Lund","geo_longitude":13.1929449,"geo_latitude":55.7029296,"country":" Sweden"},"type":"Feature","geometry":{"type":"Point","coordinates":[13.1929449,55.7029296]}},{"id":"Coventry","properties":{"town":"Coventry","geo_longitude":-1.510477,"geo_latitude":52.4081812,"country":" United Kingdom"},"type":"Feature","geometry":{"type":"Point","coordinates":[-1.510477,52.4081812]}},{"id":"Linköping","properties":{"town":"Linköping","geo_longitude":15.6245221,"geo_latitude":58.4098139,"country":" Sweden"},"type":"Feature","geometry":{"type":"Point","coordinates":[15.6245221,58.4098139]}},{"id":"Dresden","properties":{"town":"Dresden","geo_longitude":13.7384089767404,"geo_latitude":51.0763286,"country":" Germany"},"type":"Feature","geometry":{"type":"Point","coordinates":[13.7384089767404,51.0763286]}},{"id":"Lund","properties":{"town":"Lund","geo_longitude":13.1929449,"geo_latitude":55.7029296,"country":" Sweden"},"type":"Feature","geometry":{"type":"Point","coordinates":[13.1929449,55.7029296]}},{"id":"Berlin","properties":{"town":"Berlin","geo_longitude":13.3888599,"geo_latitude":52.5170365,"country":" Germany"},"type":"Feature","geometry":{"type":"Point","coordinates":[13.3888599,52.5170365]}},{"id":"Linköping","properties":{"town":"Linköping","geo_longitude":15.6245221,"geo_latitude":58.4098139,"country":" Sweden"},"type":"Feature","geometry":{"type":"Point","coordinates":[15.6245221,58.4098139]}},{"id":"Goteborg","properties":{"town":"Goteborg","geo_longitude":11.9670171,"geo_latitude":57.7072326,"country":" Sweden"},"type":"Feature","geometry":{"type":"Point","coordinates":[11.9670171,57.7072326]}},{"id":"Linköping?","properties":{"town":"Linköping?","geo_longitude":15.6245221,"geo_latitude":58.4098139,"country":"Sweden"},"type":"Feature","geometry":{"type":"Point","coordinates":[15.6245221,58.4098139]}},{"id":"Espoo","properties":{"town":"Espoo","geo_longitude":24.6569676,"geo_latitude":60.2051454,"country":" Finland"},"type":"Feature","geometry":{"type":"Point","coordinates":[24.6569676,60.2051454]}},{"id":"Linköping","properties":{"town":"Linköping","geo_longitude":15.6245221,"geo_latitude":58.4098139,"country":" Sweden"},"type":"Feature","geometry":{"type":"Point","coordinates":[15.6245221,58.4098139]}},{"id":"Berlin?","properties":{"town":"Berlin?","geo_longitude":13.3888599,"geo_latitude":52.5170365,"country":"Germany"},"type":"Feature","geometry":{"type":"Point","coordinates":[13.3888599,52.5170365]}},{"id":"Friedrichshafen","properties":{"town":"Friedrichshafen","geo_longitude":9.4797531,"geo_latitude":47.6505715,"country":"Germany"},"type":"Feature","geometry":{"type":"Point","coordinates":[9.4797531,47.6505715]}},{"id":"Braunschweig","properties":{"town":"Braunschweig","geo_longitude":10.5251064,"geo_latitude":52.2643004,"country":" Germany"},"type":"Feature","geometry":{"type":"Point","coordinates":[10.5251064,52.2643004]}},{"id":"Vienna","properties":{"town":"Vienna","geo_longitude":16.3730908,"geo_latitude":48.2084671,"country":" Austria"},"type":"Feature","geometry":{"type":"Point","coordinates":[16.3730908,48.2084671]}},{"id":"Hamburg","properties":{"town":"Hamburg","geo_longitude":10.000654,"geo_latitude":53.5503414,"country":"Germany"},"type":"Feature","geometry":{"type":"Point","coordinates":[10.000654,53.5503414]}},{"id":"Dresden","properties":{"town":"Dresden","geo_longitude":13.7384089767404,"geo_latitude":51.0763286,"country":" Germany"},"type":"Feature","geometry":{"type":"Point","coordinates":[13.7384089767404,51.0763286]}},{"id":"Erlangen","properties":{"town":"Erlangen","geo_longitude":10.9812156790933,"geo_latitude":49.58917705,"country":" Germany"},"type":"Feature","geometry":{"type":"Point","coordinates":[10.9812156790933,49.58917705]}},{"id":"Stockholm","properties":{"town":"Stockholm","geo_longitude":18.0613099,"geo_latitude":59.3307611,"country":" Sweden"},"type":"Feature","geometry":{"type":"Point","coordinates":[18.0613099,59.3307611]}},{"id":"Dresden","properties":{"town":"Dresden","geo_longitude":13.7384089767404,"geo_latitude":51.0763286,"country":"Germany"},"type":"Feature","geometry":{"type":"Point","coordinates":[13.7384089767404,51.0763286]}},{"id":"Lund","properties":{"town":"Lund","geo_longitude":13.1929449,"geo_latitude":55.7029296,"country":" Sweden"},"type":"Feature","geometry":{"type":"Point","coordinates":[13.1929449,55.7029296]}},{"id":"Vienna","properties":{"town":"Vienna","geo_longitude":16.3730908,"geo_latitude":48.2084671,"country":" Austria"},"type":"Feature","geometry":{"type":"Point","coordinates":[16.3730908,48.2084671]}},{"id":"Lund","properties":{"town":"Lund","geo_longitude":13.1929449,"geo_latitude":55.7029296,"country":" Sweden"},"type":"Feature","geometry":{"type":"Point","coordinates":[13.1929449,55.7029296]}},{"id":"Lund","properties":{"town":"Lund","geo_longitude":13.1929449,"geo_latitude":55.7029296,"country":" Sweden"},"type":"Feature","geometry":{"type":"Point","coordinates":[13.1929449,55.7029296]}},{"id":"Berlin","properties":{"town":"Berlin","geo_longitude":13.3888599,"geo_latitude":52.5170365,"country":" Germany"},"type":"Feature","geometry":{"type":"Point","coordinates":[13.3888599,52.5170365]}},{"id":"Berlin","properties":{"town":"Berlin","geo_longitude":13.3888599,"geo_latitude":52.5170365,"country":"Germany"},"type":"Feature","geometry":{"type":"Point","coordinates":[13.3888599,52.5170365]}},{"id":"Dresden","properties":{"town":"Dresden","geo_longitude":13.7384089767404,"geo_latitude":51.0763286,"country":" Germany"},"type":"Feature","geometry":{"type":"Point","coordinates":[13.7384089767404,51.0763286]}},{"id":"Dearborn","properties":{"town":"Dearborn","geo_longitude":-83.1763145,"geo_latitude":42.3222599,"country":" USA"},"type":"Feature","geometry":{"type":"Point","coordinates":[-83.1763145,42.3222599]}},{"id":"Paris","properties":{"town":"Paris","geo_longitude":2.3521334,"geo_latitude":48.8565056,"country":" France"},"type":"Feature","geometry":{"type":"Point","coordinates":[2.3521334,48.8565056]}},{"id":"Linköping","properties":{"town":"Linköping","geo_longitude":15.6245221,"geo_latitude":58.4098139,"country":" Sweden"},"type":"Feature","geometry":{"type":"Point","coordinates":[15.6245221,58.4098139]}},{"id":"Linköping?","properties":{"town":"Linköping?","geo_longitude":15.6245221,"geo_latitude":58.4098139,"country":"Sweden"},"type":"Feature","geometry":{"type":"Point","coordinates":[15.6245221,58.4098139]}},{"id":"Lund","properties":{"town":"Lund","geo_longitude":13.1929449,"geo_latitude":55.7029296,"country":" Sweden"},"type":"Feature","geometry":{"type":"Point","coordinates":[13.1929449,55.7029296]}},{"id":"Oberpfaffenhofen","properties":{"town":"Oberpfaffenhofen","geo_longitude":11.2649062,"geo_latitude":48.0732582,"country":" Germany"},"type":"Feature","geometry":{"type":"Point","coordinates":[11.2649062,48.0732582]}},{"id":"Berlin","properties":{"town":"Berlin","geo_longitude":13.3888599,"geo_latitude":52.5170365,"country":" Germany"},"type":"Feature","geometry":{"type":"Point","coordinates":[13.3888599,52.5170365]}},{"id":"Linköping","properties":{"town":"Linköping","geo_longitude":15.6245221,"geo_latitude":58.4098139,"country":" Sweden"},"type":"Feature","geometry":{"type":"Point","coordinates":[15.6245221,58.4098139]}},{"id":"Lund","properties":{"town":"Lund","geo_longitude":13.1929449,"geo_latitude":55.7029296,"country":" Sweden"},"type":"Feature","geometry":{"type":"Point","coordinates":[13.1929449,55.7029296]}},{"id":"Vélizy","properties":{"town":"Vélizy","geo_longitude":2.1906082,"geo_latitude":48.7826191,"country":"France"},"type":"Feature","geometry":{"type":"Point","coordinates":[2.1906082,48.7826191]}},{"id":"Braunschweig","properties":{"town":"Braunschweig","geo_longitude":10.5251064,"geo_latitude":52.2643004,"country":" Germany"},"type":"Feature","geometry":{"type":"Point","coordinates":[10.5251064,52.2643004]}},{"id":"Linköping","properties":{"town":"Linköping","geo_longitude":15.6245221,"geo_latitude":58.4098139,"country":" Sweden"},"type":"Feature","geometry":{"type":"Point","coordinates":[15.6245221,58.4098139]}},{"id":"Stockholm","properties":{"town":"Stockholm","geo_longitude":18.0613099,"geo_latitude":59.3307611,"country":" Sweden"},"type":"Feature","geometry":{"type":"Point","coordinates":[18.0613099,59.3307611]}},{"id":"Linköping","properties":{"town":"Linköping","geo_longitude":15.6245221,"geo_latitude":58.4098139,"country":" Sweden"},"type":"Feature","geometry":{"type":"Point","coordinates":[15.6245221,58.4098139]}},{"id":"Linköping?","properties":{"town":"Linköping?","geo_longitude":15.6245221,"geo_latitude":58.4098139,"country":"Sweden"},"type":"Feature","geometry":{"type":"Point","coordinates":[15.6245221,58.4098139]}},{"id":"Dresden","properties":{"town":"Dresden","geo_longitude":13.7384089767404,"geo_latitude":51.0763286,"country":" Germany"},"type":"Feature","geometry":{"type":"Point","coordinates":[13.7384089767404,51.0763286]}},{"id":"Munich","properties":{"town":"Munich","geo_longitude":11.5754815,"geo_latitude":48.1372719,"country":"Germany"},"type":"Feature","geometry":{"type":"Point","coordinates":[11.5754815,48.1372719]}},{"id":"Dresden","properties":{"town":"Dresden","geo_longitude":13.7384089767404,"geo_latitude":51.0763286,"country":" Germany"},"type":"Feature","geometry":{"type":"Point","coordinates":[13.7384089767404,51.0763286]}},{"id":"Munich","properties":{"town":"Munich","geo_longitude":11.5754815,"geo_latitude":48.1372719,"country":" Germany"},"type":"Feature","geometry":{"type":"Point","coordinates":[11.5754815,48.1372719]}},{"id":"Dresden","properties":{"town":"Dresden","geo_longitude":13.7384089767404,"geo_latitude":51.0763286,"country":"Germany"},"type":"Feature","geometry":{"type":"Point","coordinates":[13.7384089767404,51.0763286]}},{"id":"Waterloo, ON","properties":{"town":"Waterloo, ON","geo_longitude":-80.5217786,"geo_latitude":43.4655524,"country":"Canada"},"type":"Feature","geometry":{"type":"Point","coordinates":[-80.5217786,43.4655524]}},{"id":"Oberpfaffenhofen","properties":{"town":"Oberpfaffenhofen","geo_longitude":11.2649062,"geo_latitude":48.0732582,"country":" Germany"},"type":"Feature","geometry":{"type":"Point","coordinates":[11.2649062,48.0732582]}},{"id":"Vienna","properties":{"town":"Vienna","geo_longitude":16.3730908,"geo_latitude":48.2084671,"country":" Austria"},"type":"Feature","geometry":{"type":"Point","coordinates":[16.3730908,48.2084671]}},{"id":"Linköping","properties":{"town":"Linköping","geo_longitude":15.6245221,"geo_latitude":58.4098139,"country":"Sweden"},"type":"Feature","geometry":{"type":"Point","coordinates":[15.6245221,58.4098139]}},{"id":"Hillsboro, OR","properties":{"town":"Hillsboro, OR","geo_longitude":-122.989827,"geo_latitude":45.5228939,"country":"USA"},"type":"Feature","geometry":{"type":"Point","coordinates":[-122.989827,45.5228939]}},{"id":"Linköping?","properties":{"town":"Linköping?","geo_longitude":15.6245221,"geo_latitude":58.4098139,"country":"Sweden"},"type":"Feature","geometry":{"type":"Point","coordinates":[15.6245221,58.4098139]}},{"id":"Oberpfaffenhofen","properties":{"town":"Oberpfaffenhofen","geo_longitude":11.2649062,"geo_latitude":48.0732582,"country":" Germany"},"type":"Feature","geometry":{"type":"Point","coordinates":[11.2649062,48.0732582]}},{"id":"Paris","properties":{"town":"Paris","geo_longitude":2.3521334,"geo_latitude":48.8565056,"country":" France"},"type":"Feature","geometry":{"type":"Point","coordinates":[2.3521334,48.8565056]}},{"id":"Canton, Michigan","properties":{"town":"Canton, Michigan","geo_longitude":-83.4868324168246,"geo_latitude":42.3074635,"country":" USA"},"type":"Feature","geometry":{"type":"Point","coordinates":[-83.4868324168246,42.3074635]}},{"id":"Linköping","properties":{"town":"Linköping","geo_longitude":15.6245221,"geo_latitude":58.4098139,"country":" Sweden"},"type":"Feature","geometry":{"type":"Point","coordinates":[15.6245221,58.4098139]}},{"id":"Lund","properties":{"town":"Lund","geo_longitude":13.1929449,"geo_latitude":55.7029296,"country":" Sweden"},"type":"Feature","geometry":{"type":"Point","coordinates":[13.1929449,55.7029296]}},{"id":"Palo Alto, CA","properties":{"town":"Palo Alto, CA","geo_longitude":-122.1634472,"geo_latitude":37.442156,"country":"USA"},"type":"Feature","geometry":{"type":"Point","coordinates":[-122.1634472,37.442156]}},{"id":"Dresden","properties":{"town":"Dresden","geo_longitude":13.7384089767404,"geo_latitude":51.0763286,"country":" Germany"},"type":"Feature","geometry":{"type":"Point","coordinates":[13.7384089767404,51.0763286]}},{"id":"Waterloo, ON","properties":{"town":"Waterloo, ON","geo_longitude":-80.5217786,"geo_latitude":43.4655524,"country":"Canada"},"type":"Feature","geometry":{"type":"Point","coordinates":[-80.5217786,43.4655524]}},{"id":"Hamburg?","properties":{"town":"Hamburg?","geo_longitude":10.000654,"geo_latitude":53.5503414,"country":" Germany"},"type":"Feature","geometry":{"type":"Point","coordinates":[10.000654,53.5503414]}},{"id":"Waterloo, ON","properties":{"town":"Waterloo, ON","geo_longitude":-80.5217786,"geo_latitude":43.4655524,"country":" Canada"},"type":"Feature","geometry":{"type":"Point","coordinates":[-80.5217786,43.4655524]}},{"id":"Vienna","properties":{"town":"Vienna","geo_longitude":16.3730908,"geo_latitude":48.2084671,"country":"Austria"},"type":"Feature","geometry":{"type":"Point","coordinates":[16.3730908,48.2084671]}},{"id":"Grenoble","properties":{"town":"Grenoble","geo_longitude":5.7210773,"geo_latitude":45.182478,"country":" France"},"type":"Feature","geometry":{"type":"Point","coordinates":[5.7210773,45.182478]}},{"id":"Berkeley","properties":{"town":"Berkeley","geo_longitude":-122.2728247,"geo_latitude":37.8708789,"country":" USA"},"type":"Feature","geometry":{"type":"Point","coordinates":[-122.2728247,37.8708789]}},{"id":"Baden","properties":{"town":"Baden","geo_longitude":8.3086822,"geo_latitude":47.4736827,"country":" Switzerland"},"type":"Feature","geometry":{"type":"Point","coordinates":[8.3086822,47.4736827]}},{"id":"Porsgrunn","properties":{"town":"Porsgrunn","geo_longitude":9.73565477685913,"geo_latitude":59.103524,"country":" Norway"},"type":"Feature","geometry":{"type":"Point","coordinates":[9.73565477685913,59.103524]}},{"id":"Hamburg","properties":{"town":"Hamburg","geo_longitude":10.000654,"geo_latitude":53.5503414,"country":" Germany"},"type":"Feature","geometry":{"type":"Point","coordinates":[10.000654,53.5503414]}},{"id":"Oberpfaffenhofen","properties":{"town":"Oberpfaffenhofen","geo_longitude":11.2649062,"geo_latitude":48.0732582,"country":" Germany"},"type":"Feature","geometry":{"type":"Point","coordinates":[11.2649062,48.0732582]}},{"id":"Lund","properties":{"town":"Lund","geo_longitude":13.1929449,"geo_latitude":55.7029296,"country":"Sweden"},"type":"Feature","geometry":{"type":"Point","coordinates":[13.1929449,55.7029296]}}],"type":"FeatureCollection"}